[{"id": "4646630373", "lat": 34.5095646, "lon": 127.1218589, "name": "구라탑", "type": "monument", "address": ""}, {"id": "4646630374", "lat": 34.5095956, "lon": 127.1222673, "name": "보리피리시비", "type": "monument", "address": ""}, {"id": "4646630378", "lat": 34.5090772, "lon": 127.1226523, "name": "예수상", "type": "monument", "address": ""}, {"id": "4650455844", "lat": 34.5106935, "lon": 127.120975, "name": "감금실", "type": "memorial", "address": ""}, {"id": "4650455845", "lat": 34.5109432, "lon": 127.1209395, "name": "검시실", "type": "memorial", "address": ""}, {"id": "4650455846", "lat": 34.5099807, "lon": 127.1218, "name": "벨기에 공적비", "type": "monument", "address": ""}, {"id": "4650455847", "lat": 34.509389, "lon": 127.122155, "name": "오스트리아 공적비", "type": "monument", "address": ""}, {"id": "4650455848", "lat": 34.5096396, "lon": 127.1223916, "name": "스오원장동상", "type": "monument", "address": ""}, {"id": "4652602640", "lat": 34.5204696, "lon": 127.1343823, "name": "충혼탑", "type": "monument", "address": ""}, {"id": "4652602650", "lat": 34.5202379, "lon": 127.1347838, "name": "행정선", "type": "monument", "address": ""}]