[{"id": "368633328", "lat": 34.8629522, "lon": 128.7239014, "name": "뱃길", "type": "monument", "address": ""}, {"id": "4663486986", "lat": 34.8620735, "lon": 128.7242186, "name": "마전탑", "type": "monument", "address": ""}, {"id": "5065321709", "lat": 34.9314108, "lon": 128.7154558, "name": "김영삼대통령기록전시관", "type": "museum", "address": "옥포대첩로"}, {"id": "5065321710", "lat": 34.9315583, "lon": 128.7151908, "name": "김영삼대통령생가", "type": "museum", "address": "옥포대첩로"}, {"id": "12319175692", "lat": 34.8772695, "lon": 128.6533342, "name": "포로수용소잔존유적지", "type": "archaeological_site", "address": ""}]