[{"id": "11968439121", "lat": 34.9254875, "lon": 126.8802398, "name": "대웅전앞다층석탑", "type": "monument", "address": ""}, {"id": "11968439142", "lat": 34.924885, "lon": 126.8800977, "name": "화순운주사 원형다층석탑", "type": "monument", "address": ""}, {"id": "11968439143", "lat": 34.9247508, "lon": 126.8800494, "name": "화순운주사석조불감", "type": "monument", "address": ""}, {"id": "11968439144", "lat": 34.9246211, "lon": 126.8800172, "name": "화순운주사 석조불감앞칠층석탑", "type": "monument", "address": ""}, {"id": "11968439146", "lat": 34.9237436, "lon": 126.8794888, "name": "화순운주사 쌍교차문칠층석탑", "type": "monument", "address": ""}, {"id": "11968439147", "lat": 34.9233027, "lon": 126.8793534, "name": "화순운주사 구층석탑", "type": "monument", "address": ""}, {"id": "11968439163", "lat": 34.924399, "lon": 126.8787646, "name": "화순운주사 칠성바위앞칠층석탑", "type": "monument", "address": ""}]