[{"id": "4634417725", "lat": 35.0679423, "lon": 127.7453852, "name": "충혼탑", "type": "memorial", "address": ""}, {"id": "4637388395", "lat": 35.0658148, "lon": 127.7484976, "name": "하동초등학교 100주년 기념광장", "type": "memorial", "address": ""}, {"id": "4640185795", "lat": 35.0694756, "lon": 127.7427713, "name": "섬호정", "type": "archaeological_site", "address": ""}, {"id": "4640417466", "lat": 35.070604, "lon": 127.743888, "name": "하동향교", "type": "archaeological_site", "address": ""}, {"id": "11655345354", "lat": 35.0752199, "lon": 127.7167208, "name": "홍쌍리청매실가비석", "type": "memorial", "address": ""}, {"id": "12074416867", "lat": 35.0726523, "lon": 127.7485835, "name": "하동군항일독립운동기념탑", "type": "memorial", "address": ""}]