[{"id": "368604117", "lat": 35.0658898, "lon": 129.0832408, "name": "순직선원위령탑", "type": "memorial", "address": ""}, {"id": "368898318", "lat": 35.1348988, "lon": 129.0598412, "name": "불교서적전시관", "type": "museum", "address": ""}, {"id": "368898386", "lat": 35.1350073, "lon": 129.0871369, "name": "해인불교전시관", "type": "museum", "address": ""}, {"id": "4650592834", "lat": 35.1253015, "lon": 129.0945545, "name": "강제동원추모탑", "type": "memorial", "address": ""}, {"id": "4656436519", "lat": 35.0910197, "lon": 129.0678347, "name": "영도 20주년 타임캡슐", "type": "monument", "address": ""}, {"id": "4685228460", "lat": 35.1294787, "lon": 129.09219, "name": "유엔 참전기념탑", "type": "monument", "address": ""}, {"id": "4687918243", "lat": 35.0705594, "lon": 129.0579474, "name": "첨성대", "type": "monument", "address": ""}, {"id": "4687918245", "lat": 35.0707598, "lon": 129.0582794, "name": "영도찬가", "type": "monument", "address": ""}, {"id": "4687918246", "lat": 35.0708404, "lon": 129.0577452, "name": "75광장 건설 기념물", "type": "monument", "address": ""}, {"id": "4690039187", "lat": 35.0703799, "lon": 129.0616732, "name": "함지그린아파트 건축 기념비", "type": "monument", "address": ""}, {"id": "4690042540", "lat": 35.0706163, "lon": 129.060485, "name": "함지그린 공원 운동기구", "type": "monument", "address": ""}, {"id": "5482775491", "lat": 35.1258714, "lon": 129.101808, "name": "용비탑", "type": "monument", "address": ""}, {"id": "10049084623", "lat": 35.1324981, "lon": 129.1029331, "name": "백경탑", "type": "memorial", "address": ""}, {"id": "10171755725", "lat": 35.1344439, "lon": 129.1049711, "name": "부경대학교 박물관", "type": "museum", "address": ""}, {"id": "11345965817", "lat": 35.1359703, "lon": 129.0613219, "name": "천장군 기념비", "type": "memorial", "address": ""}, {"id": "11473142641", "lat": 35.1290973, "lon": 129.0954045, "name": "콜롬비아 기념비", "type": "memorial", "address": ""}, {"id": "11473142642", "lat": 35.1290232, "lon": 129.0955648, "name": "필리핀 기념비", "type": "memorial", "address": ""}, {"id": "11473142643", "lat": 35.1287995, "lon": 129.0953925, "name": "태국 기념비", "type": "memorial", "address": ""}, {"id": "11473142644", "lat": 35.1286476, "lon": 129.0963225, "name": "영국 기념비", "type": "memorial", "address": ""}, {"id": "11473142645", "lat": 35.1288093, "lon": 129.0963131, "name": "프랑스 기념비", "type": "memorial", "address": ""}, {"id": "11473142646", "lat": 35.1282524, "lon": 129.0955262, "name": "튀르키예 기념비 Ⅰ", "type": "memorial", "address": ""}, {"id": "11473142647", "lat": 35.1283555, "lon": 129.0953029, "name": "그리스 기념비", "type": "memorial", "address": ""}, {"id": "11473142648", "lat": 35.1285143, "lon": 129.0950525, "name": "튀르키예 기념비 Ⅱ", "type": "memorial", "address": ""}, {"id": "11473142649", "lat": 35.1286711, "lon": 129.0950491, "name": "노르웨이 기념비", "type": "memorial", "address": ""}, {"id": "11473142650", "lat": 35.1290951, "lon": 129.0956097, "name": "뉴질랜드 기념비", "type": "memorial", "address": ""}, {"id": "12741503361", "lat": 35.1457219, "lon": 129.0656347, "name": "부산은행 금융역사관", "type": "museum", "address": "문현금융로"}, {"id": "12759210155", "lat": 35.1472262, "lon": 129.0656901, "name": "자본시장역사박물관", "type": "museum", "address": ""}]