[{"id": "368635896", "lat": 35.161146, "lon": 126.918637, "name": "4.19민주혁명기념관", "type": "museum", "address": ""}, {"id": "368733972", "lat": 35.1841681, "lon": 126.8886428, "name": "광주시립민속박물관", "type": "museum", "address": ""}, {"id": "368735408", "lat": 35.1723957, "lon": 126.9094082, "name": "한국미용박물관", "type": "museum", "address": ""}, {"id": "2395692744", "lat": 35.1890184, "lon": 126.8830723, "name": "국립광주박물관", "type": "museum", "address": ""}, {"id": "4641496755", "lat": 35.1532493, "lon": 126.8856757, "name": "죽봉 김태원 동상", "type": "monument", "address": ""}, {"id": "4686235141", "lat": 35.16948, "lon": 126.9233457, "name": "설립자 동상", "type": "monument", "address": ""}, {"id": "5915172385", "lat": 35.1504738, "lon": 126.9202941, "name": "비움박물관", "type": "museum", "address": ""}, {"id": "6278679711", "lat": 35.1530514, "lon": 126.9088482, "name": "광주학생독립운동기념탑", "type": "attraction", "address": ""}, {"id": "7148951017", "lat": 35.2364415, "lon": 126.9386346, "name": "국립5.18민주묘지 5.18민중항쟁추모탑", "type": "monument", "address": ""}, {"id": "7178968717", "lat": 35.1575171, "lon": 126.8578827, "name": "기념탑", "type": "monument", "address": ""}, {"id": "10135949511", "lat": 35.1718648, "lon": 126.8984525, "name": "새마을 운동비", "type": "memorial", "address": ""}, {"id": "10250731022", "lat": 35.1759638, "lon": 126.9005121, "name": "농생대 역사전시관", "type": "museum", "address": ""}, {"id": "10271456985", "lat": 35.1759278, "lon": 126.9064469, "name": "대학역사관", "type": "museum", "address": ""}, {"id": "10271456997", "lat": 35.1727218, "lon": 126.9054188, "name": "5.18사적비", "type": "memorial", "address": ""}, {"id": "10271466753", "lat": 35.1733756, "lon": 126.904684, "name": "혁명정신 계승비", "type": "memorial", "address": ""}, {"id": "10289009803", "lat": 35.1770495, "lon": 126.9043073, "name": "김남주 시비", "type": "memorial", "address": ""}, {"id": "10289009804", "lat": 35.1771987, "lon": 126.9043521, "name": "김남주 기념홀", "type": "museum", "address": ""}, {"id": "10291816047", "lat": 35.1787844, "lon": 126.9061655, "name": "사범대학 교육목표", "type": "memorial", "address": ""}, {"id": "10310832458", "lat": 35.175374, "lon": 126.90717, "name": "전남대학교 야외박물관", "type": "museum", "address": ""}, {"id": "10310832459", "lat": 35.1755768, "lon": 126.9068375, "name": "비좌", "type": "archaeological_site", "address": ""}, {"id": "10310832461", "lat": 35.1754475, "lon": 126.9069825, "name": "연자방아", "type": "archaeological_site", "address": ""}, {"id": "10310832465", "lat": 35.1752967, "lon": 126.9070304, "name": "연자방아", "type": "archaeological_site", "address": ""}, {"id": "10310865058", "lat": 35.1793448, "lon": 126.9098167, "name": "공과대학 교육목표", "type": "memorial", "address": ""}, {"id": "10559076826", "lat": 35.201856, "lon": 126.8986505, "name": "남도향토음식박물관", "type": "museum", "address": ""}, {"id": "10559076838", "lat": 35.2017541, "lon": 126.8986948, "name": "호남문화자료전시관", "type": "museum", "address": ""}, {"id": "10562969243", "lat": 35.1752318, "lon": 126.9111738, "name": "전남대학교 박물관", "type": "museum", "address": ""}, {"id": "10562969502", "lat": 35.1731108, "lon": 126.9093397, "name": "공룡체험학습관", "type": "museum", "address": ""}, {"id": "10828666446", "lat": 35.1683243, "lon": 126.8907278, "name": "무등경기장 정문 - 민중항쟁 사적18", "type": "memorial", "address": ""}, {"id": "12434838907", "lat": 35.1896178, "lon": 126.9170177, "name": "광주학생독립운동역사관", "type": "museum", "address": ""}]