[{"id": "3792053126", "lat": 35.284023, "lon": 129.0684308, "name": "삼층석탑", "type": "archaeological_site", "address": ""}, {"id": "4679662515", "lat": 35.268415, "lon": 129.0791293, "name": "부산 남산동 자기요지", "type": "archaeological_site", "address": "금샘로 485"}, {"id": "4737762219", "lat": 35.268505, "lon": 129.0783416, "name": "9인 추모비", "type": "memorial", "address": ""}, {"id": "4737762220", "lat": 35.2684755, "lon": 129.0783699, "name": "의인 양성호 비", "type": "memorial", "address": ""}, {"id": "7363413217", "lat": 35.2838204, "lon": 129.0683722, "name": "석등", "type": "archaeological_site", "address": ""}, {"id": "9748432169", "lat": 35.3127769, "lon": 129.1152048, "name": "송정리 입석마을 선돌", "type": "archaeological_site", "address": ""}, {"id": "9811746681", "lat": 35.3366917, "lon": 129.1203818, "name": "양산 법기리 가마터", "type": "archaeological_site", "address": ""}]