[{"id": "368898332", "lat": 35.3400756, "lon": 129.0376118, "name": "한국불교전시관", "type": "museum", "address": ""}, {"id": "1906094779", "lat": 35.252352, "lon": 128.972713, "name": "조난위치표지목(김해13-2)", "type": "monument", "address": ""}, {"id": "7116992714", "lat": 35.323444, "lon": 129.0001124, "name": "충혼탑", "type": "monument", "address": ""}, {"id": "7116992765", "lat": 35.323561, "lon": 129.0016528, "name": "DesignLovePark", "type": "monument", "address": ""}, {"id": "10828235959", "lat": 35.3300542, "lon": 129.0390968, "name": "계석마을표지석", "type": "memorial", "address": ""}, {"id": "12679604615", "lat": 35.3481254, "lon": 129.0267259, "name": "충렬사", "type": "museum", "address": ""}]