[{"id": "368733849", "lat": 35.8012213, "lon": 127.0931849, "name": "전주역사박물관", "type": "museum", "address": "쑥고개로"}, {"id": "368733861", "lat": 35.801028, "lon": 127.089704, "name": "국립전주박물관", "type": "museum", "address": ""}, {"id": "368734416", "lat": 35.8490804, "lon": 127.1002341, "name": "종이박물관", "type": "museum", "address": ""}, {"id": "4655264761", "lat": 35.8462435, "lon": 127.1321571, "name": "공과대학 조형물", "type": "monument", "address": ""}, {"id": "4655264762", "lat": 35.8462294, "lon": 127.1322403, "name": "공과대학 시계탑", "type": "monument", "address": ""}, {"id": "4655283377", "lat": 35.8463358, "lon": 127.1334626, "name": "공과대학 비행기 전시물", "type": "monument", "address": ""}, {"id": "4656042359", "lat": 35.7996181, "lon": 127.1493841, "name": "성민이의 돌", "type": "yes", "address": ""}, {"id": "4662913863", "lat": 35.8480234, "lon": 127.1213098, "name": "동상", "type": "monument", "address": ""}, {"id": "4662966547", "lat": 35.8475355, "lon": 127.1214045, "name": "동상", "type": "monument", "address": ""}, {"id": "4665336458", "lat": 35.8338379, "lon": 127.1420989, "name": "석비", "type": "memorial", "address": "모래내3길"}, {"id": "6387043186", "lat": 35.8047069, "lon": 127.1450528, "name": "Tonghak Movement Battle Site", "type": "monument", "address": ""}, {"id": "11393763639", "lat": 35.8455435, "lon": 127.1289746, "name": "이세종 열사 추모비", "type": "memorial", "address": ""}, {"id": "12429488613", "lat": 35.8145719, "lon": 127.1352297, "name": "전주시 기독교근대역사기념관", "type": "museum", "address": ""}]