[{"id": "368635911", "lat": 35.8169189, "lon": 127.1519821, "name": "동학혁명기념관", "type": "museum", "address": ""}, {"id": "368735878", "lat": 35.8170414, "lon": 127.1535235, "name": "전주전통술박물관", "type": "museum", "address": "74 Hanji-gil"}, {"id": "368898160", "lat": 35.8147112, "lon": 127.1530401, "name": "전주공예품전시관", "type": "museum", "address": ""}, {"id": "368898244", "lat": 35.8144899, "lon": 127.1519768, "name": "고가구전시관", "type": "museum", "address": ""}, {"id": "891514051", "lat": 35.811307, "lon": 127.1524503, "name": "Gangam Calligraphy Museum", "type": "museum", "address": "Jeonjuchundongno"}, {"id": "4656070997", "lat": 35.8051072, "lon": 127.1566788, "name": "충경사 유적지", "type": "yes", "address": ""}, {"id": "5783451453", "lat": 35.8150547, "lon": 127.1504753, "name": "예종대왕태실비", "type": "memorial", "address": ""}, {"id": "6387081085", "lat": 35.8025279, "lon": 127.1606802, "name": "Shrine statue", "type": "monument", "address": ""}, {"id": "10899384779", "lat": 35.8142576, "lon": 127.1561627, "name": "Imokdae", "type": "monument", "address": ""}, {"id": "11897627218", "lat": 35.8090415, "lon": 127.1678769, "name": "치 명자산성지 기암 '성모 마리아상'", "type": "monument", "address": ""}, {"id": "11909693756", "lat": 35.8159109, "lon": 127.1535371, "name": "전주전통한지원", "type": "museum", "address": "한지길"}]