[{"id": "368635756", "lat": 35.836705, "lon": 128.576833, "name": "낙동강 승전기념관", "type": "museum", "address": ""}, {"id": "368898364", "lat": 35.833783, "lon": 128.556067, "name": "대구불교전시관", "type": "museum", "address": ""}, {"id": "368898449", "lat": 35.7892041, "lon": 128.5934705, "name": "동제미술전시관", "type": "museum", "address": ""}, {"id": "368898697", "lat": 35.835058, "lon": 128.623171, "name": "동서개발주택전시관", "type": "museum", "address": ""}, {"id": "2610495688", "lat": 35.8499375, "lon": 128.5577828, "name": "대구사범학생독립운동기념탑", "type": "memorial", "address": ""}, {"id": "12074658280", "lat": 35.8380344, "lon": 128.6021429, "name": "효성여대 옛터", "type": "memorial", "address": ""}]