[{"id": "368636082", "lat": 35.9850243, "lon": 126.742002, "name": "3.1운동역사상영관", "type": "museum", "address": ""}, {"id": "368898448", "lat": 35.968915, "lon": 126.694212, "name": "덕봉전시관", "type": "museum", "address": ""}, {"id": "4660251546", "lat": 35.9564608, "lon": 126.6892439, "name": "독립유공자 충혼기념비", "type": "monument", "address": ""}, {"id": "4660251548", "lat": 35.9544278, "lon": 126.6885564, "name": "3·1운동기념탑", "type": "monument", "address": ""}, {"id": "7593009342", "lat": 36.0296177, "lon": 126.7185494, "name": "상징조형물", "type": "memorial", "address": ""}, {"id": "10142667004", "lat": 36.0200089, "lon": 126.739675, "name": "금강호", "type": "memorial", "address": ""}, {"id": "11034325892", "lat": 35.9907684, "lon": 126.7042277, "name": "해병대 군산장항이리지구 전적비", "type": "memorial", "address": ""}]