[{"id": "10765087701", "lat": 35.9935927, "lon": 129.1381871, "name": "옥서정", "type": "archaeological_site", "address": ""}, {"id": "10765087702", "lat": 35.9936775, "lon": 129.139079, "name": "하곡서당", "type": "archaeological_site", "address": ""}, {"id": "10765087703", "lat": 35.9927576, "lon": 129.137581, "name": "무구정", "type": "archaeological_site", "address": ""}, {"id": "10765150006", "lat": 36.0004974, "lon": 129.1342548, "name": "수재정", "type": "archaeological_site", "address": ""}, {"id": "10765150007", "lat": 35.9897852, "lon": 129.1215332, "name": "관수정", "type": "archaeological_site", "address": ""}, {"id": "10765150017", "lat": 35.9652236, "lon": 129.1381563, "name": "백원정", "type": "archaeological_site", "address": ""}, {"id": "10765150018", "lat": 35.9727046, "lon": 129.1366683, "name": "장산재", "type": "archaeological_site", "address": ""}, {"id": "11184907851", "lat": 35.9811283, "lon": 129.1143271, "name": "현충탑", "type": "memorial", "address": ""}, {"id": "11184910423", "lat": 35.9805444, "lon": 129.1076092, "name": "영천전투호국기념관", "type": "monument", "address": ""}]