[{"id": "5715179714", "lat": 36.1639816, "lon": 129.3949668, "name": "박정희대통령순시조형물", "type": "memorial", "address": ""}, {"id": "12093039441", "lat": 36.1647218, "lon": 129.39502, "name": "낙동강유역사방비", "type": "memorial", "address": ""}, {"id": "12149197140", "lat": 36.2311847, "lon": 129.3637907, "name": "해군육전대 전적비", "type": "memorial", "address": ""}, {"id": "12149197141", "lat": 36.2312519, "lon": 129.3629033, "name": "한미해병대 충혼탑", "type": "memorial", "address": ""}, {"id": "12149197528", "lat": 36.2345649, "lon": 129.3837662, "name": "5인의 해병 순직비", "type": "memorial", "address": ""}, {"id": "12229269295", "lat": 36.1643746, "lon": 129.397377, "name": "사방기념공원 박정희대통령순시기념비", "type": "memorial", "address": ""}, {"id": "12229269296", "lat": 36.1641817, "lon": 129.3976176, "name": "영일사방준공비", "type": "memorial", "address": ""}]