[{"id": "368635825", "lat": 36.2536701, "lon": 129.3555128, "name": "대전 3.1의거 기념관", "type": "museum", "address": ""}, {"id": "368734062", "lat": 36.296076, "lon": 129.376778, "name": "경보화석박물관", "type": "museum", "address": ""}, {"id": "12009410651", "lat": 36.3456757, "lon": 129.3855459, "name": "망향탑", "type": "memorial", "address": ""}, {"id": "12140568888", "lat": 36.2628429, "lon": 129.3735257, "name": "자유수호 희생자 위령비", "type": "memorial", "address": ""}, {"id": "12462366667", "lat": 36.2800645, "lon": 129.3788386, "name": "장사상륙작전 전승기념관", "type": "monument", "address": ""}]