[{"id": "2240285031", "lat": 36.5413756, "lon": 127.831904, "name": "법주사 마애여래의좌상", "type": "archaeological_site", "address": ""}, {"id": "2240285086", "lat": 36.5417433, "lon": 127.832193, "name": "세존사리탑", "type": "archaeological_site", "address": ""}, {"id": "2240285179", "lat": 36.5424568, "lon": 127.8328267, "name": "법주사 석조희견보살입상", "type": "archaeological_site", "address": ""}, {"id": "2240285212", "lat": 36.5425366, "lon": 127.8333497, "name": "법주사 사천왕석등", "type": "archaeological_site", "address": ""}, {"id": "2240285268", "lat": 36.5404976, "lon": 127.8323902, "name": "법주사벽암대사비", "type": "memorial", "address": ""}, {"id": "3408967815", "lat": 36.5422017, "lon": 127.8331786, "name": "법주사 쌍사자석등", "type": "archaeological_site", "address": ""}, {"id": "7704708773", "lat": 36.5397149, "lon": 127.8323561, "name": "승가탑", "type": "memorial", "address": ""}, {"id": "7704708774", "lat": 36.5428006, "lon": 127.8335905, "name": "법주사 소조비로자나삼불좌상", "type": "archaeological_site", "address": ""}, {"id": "7704708775", "lat": 36.542387, "lon": 127.8329752, "name": "법주사 목조관음보살좌상", "type": "archaeological_site", "address": ""}, {"id": "7704708776", "lat": 36.5413307, "lon": 127.8330861, "name": "법주사 철솥", "type": "archaeological_site", "address": ""}, {"id": "7706699775", "lat": 36.5404217, "lon": 127.832335, "name": "속리산사실기비", "type": "memorial", "address": ""}]