[{"id": "364709499", "lat": 36.4621427, "lon": 127.11394, "name": "무령왕릉", "type": "archaeological_site", "address": ""}, {"id": "368733866", "lat": 36.4655532, "lon": 127.1119951, "name": "국립공주박물관", "type": "museum", "address": "관광단지길"}, {"id": "2624472406", "lat": 36.461971, "lon": 127.1135903, "name": "무령왕릉 전시관", "type": "museum", "address": ""}, {"id": "5374653149", "lat": 36.4693625, "lon": 127.1400262, "name": "박물관 자료실", "type": "museum", "address": ""}, {"id": "5389571911", "lat": 36.4643673, "lon": 127.1246564, "name": "활쏘기체험", "type": "yes", "address": ""}, {"id": "5389571912", "lat": 36.4643474, "lon": 127.1244015, "name": "복식체험", "type": "yes", "address": ""}, {"id": "5617203350", "lat": 36.4557513, "lon": 127.1142964, "name": "충남통일관", "type": "museum", "address": ""}, {"id": "5634173669", "lat": 36.4623065, "lon": 127.1256512, "name": "공산성 쌍수정", "type": "archaeological_site", "address": ""}, {"id": "12721953507", "lat": 36.4517113, "lon": 127.1224272, "name": "공주 반죽동 당간지주", "type": "archaeological_site", "address": ""}, {"id": "12721953509", "lat": 36.454446, "lon": 127.1219661, "name": "구 공주읍사무소", "type": "archaeological_site", "address": ""}]