[{"id": "12763452994", "lat": 36.584872, "lon": 129.0694938, "name": "영양 산해리 오층모전석탑", "type": "archaeological_site", "address": ""}, {"id": "12763452995", "lat": 36.5929177, "lon": 129.0687715, "name": "영양 남경대", "type": "archaeological_site", "address": ""}, {"id": "12763452997", "lat": 36.6105773, "lon": 129.0699857, "name": "영양 연당리 석불좌상", "type": "archaeological_site", "address": ""}, {"id": "12763453000", "lat": 36.6118173, "lon": 129.0696123, "name": "서석지", "type": "archaeological_site", "address": ""}, {"id": "12763453049", "lat": 36.6112821, "lon": 129.0703445, "name": "태화당고택", "type": "archaeological_site", "address": ""}]