[{"id": "4701028950", "lat": 36.6607058, "lon": 129.1147236, "name": "충혼탑", "type": "memorial", "address": ""}, {"id": "9821558597", "lat": 36.6611726, "lon": 129.1159811, "name": "엄순봉의사기적비", "type": "memorial", "address": ""}, {"id": "9824333114", "lat": 36.6610138, "lon": 129.1155869, "name": "영양3의사비", "type": "memorial", "address": ""}, {"id": "9832506273", "lat": 36.6659474, "lon": 129.1133753, "name": "오현필의사 기념비", "type": "memorial", "address": ""}, {"id": "11887269628", "lat": 36.651955, "lon": 129.1146183, "name": "현동 당간지주", "type": "archaeological_site", "address": ""}, {"id": "11887269629", "lat": 36.6522583, "lon": 129.1136286, "name": "영양 현리 삼층석탑", "type": "archaeological_site", "address": ""}, {"id": "11901916011", "lat": 36.650521, "lon": 129.1142121, "name": "영양 현리 오층모전석탑", "type": "archaeological_site", "address": ""}, {"id": "12818959446", "lat": 36.6597873, "lon": 129.1156576, "name": "6.25참전유공자기념탑", "type": "memorial", "address": ""}, {"id": "12818959447", "lat": 36.6593022, "lon": 129.1154661, "name": "한의비", "type": "memorial", "address": ""}]