[{"id": "4701028950", "lat": 36.6606259, "lon": 129.1147297, "name": "충혼탑", "type": "monument", "address": ""}, {"id": "9821558597", "lat": 36.6611479, "lon": 129.1159824, "name": "엄순봉의사기적비", "type": "memorial", "address": ""}, {"id": "9824333114", "lat": 36.660765, "lon": 129.1168167, "name": "영양3의사비", "type": "memorial", "address": ""}, {"id": "9832506273", "lat": 36.6659474, "lon": 129.1133753, "name": "오현필의사 기념비", "type": "memorial", "address": ""}, {"id": "11887269628", "lat": 36.651955, "lon": 129.1146183, "name": "현동 당간지주", "type": "archaeological_site", "address": ""}, {"id": "11887269629", "lat": 36.6522583, "lon": 129.1136286, "name": "영양 현리 삼층석탑", "type": "archaeological_site", "address": ""}, {"id": "11901916011", "lat": 36.650521, "lon": 129.1142121, "name": "영양 현리 오층모전석탑", "type": "archaeological_site", "address": ""}]