[{"id": "4701028950", "lat": 36.6607058, "lon": 129.1147236, "name": "충혼탑", "type": "memorial", "address": ""}, {"id": "9821558597", "lat": 36.6611726, "lon": 129.1159811, "name": "엄순봉의사기적비", "type": "memorial", "address": ""}, {"id": "9824333114", "lat": 36.6610353, "lon": 129.1155834, "name": "영양3의사비", "type": "memorial", "address": ""}, {"id": "9832506273", "lat": 36.6659474, "lon": 129.1133753, "name": "오현필의사 기념비", "type": "memorial", "address": ""}, {"id": "11887269628", "lat": 36.651955, "lon": 129.1146183, "name": "현동 당간지주", "type": "archaeological_site", "address": ""}, {"id": "11887269629", "lat": 36.6522583, "lon": 129.1136286, "name": "영양 현리 삼층석탑", "type": "archaeological_site", "address": ""}, {"id": "11901916011", "lat": 36.650521, "lon": 129.1142121, "name": "영양 현리 오층모전석탑", "type": "archaeological_site", "address": ""}, {"id": "12818959446", "lat": 36.6597873, "lon": 129.1156576, "name": "6.25참전유공자기념탑", "type": "memorial", "address": ""}, {"id": "12818959447", "lat": 36.6593022, "lon": 129.1154661, "name": "한의비", "type": "memorial", "address": ""}, {"id": "12821356533", "lat": 36.6609667, "lon": 129.1153838, "name": "독립운동합동기념비", "type": "memorial", "address": ""}, {"id": "12821356534", "lat": 36.6609161, "lon": 129.1152332, "name": "반공애국투사합동기념비", "type": "memorial", "address": ""}, {"id": "12821356535", "lat": 36.6611226, "lon": 129.1158169, "name": "영양무공수훈자전공비", "type": "memorial", "address": ""}, {"id": "12821459292", "lat": 36.6601809, "lon": 129.0626549, "name": "청계정", "type": "archaeological_site", "address": ""}, {"id": "12821508674", "lat": 36.6558206, "lon": 129.0636783, "name": "영양3.1의거기념탑", "type": "memorial", "address": ""}, {"id": "12822460629", "lat": 36.6619396, "lon": 129.0621965, "name": "영양 돈간재 및 주사", "type": "archaeological_site", "address": ""}, {"id": "12822460630", "lat": 36.6618591, "lon": 129.0609995, "name": "영양취수당", "type": "archaeological_site", "address": ""}, {"id": "12829372916", "lat": 36.6604315, "lon": 129.0621769, "name": "오석준선생기념관", "type": "monument", "address": ""}]