[{"id": "9706535265", "lat": 36.6538503, "lon": 127.7325728, "name": "위령탑", "type": "memorial", "address": ""}, {"id": "9706535266", "lat": 36.6538638, "lon": 127.7327256, "name": "방위군 청천중대 중대장 정영근 송덕비", "type": "memorial", "address": ""}, {"id": "9706535267", "lat": 36.6538317, "lon": 127.7326886, "name": "방위군 삼송소대 소대장 박형순 송덕비", "type": "memorial", "address": ""}, {"id": "9706535268", "lat": 36.6538491, "lon": 127.732708, "name": "방위군 청천중대 소대장 한상열 송덕비", "type": "memorial", "address": ""}, {"id": "9728392804", "lat": 36.6539262, "lon": 127.7325979, "name": "청천면 향토방위군 전몰 무명용사의 묘", "type": "memorial", "address": ""}, {"id": "12697916026", "lat": 36.6624033, "lon": 127.7358444, "name": "우암송시열신도비", "type": "memorial", "address": ""}]