[{"id": "6830327295", "lat": 36.7983239, "lon": 127.5592277, "name": "제 67보병사단 옛터", "type": "monument", "address": ""}, {"id": "6830327423", "lat": 36.7948337, "lon": 127.5600495, "name": "M48A2C2 전차", "type": "monument", "address": ""}, {"id": "7236738041", "lat": 36.7632979, "lon": 127.5952551, "name": "남하리 석조미륵보살입상", "type": "archaeological_site", "address": ""}, {"id": "7236767341", "lat": 36.794182, "lon": 127.5861473, "name": "미암리사지 석조관음보살입상", "type": "archaeological_site", "address": ""}, {"id": "7238112002", "lat": 36.7640907, "lon": 127.5956093, "name": "증평민속체험박물관", "type": "museum", "address": ""}, {"id": "7239080152", "lat": 36.7812321, "lon": 127.5836563, "name": "증평단군전", "type": "archaeological_site", "address": ""}, {"id": "7470253673", "lat": 36.7733769, "lon": 127.5861553, "name": "충혼탑", "type": "archaeological_site", "address": ""}, {"id": "7470253675", "lat": 36.7752159, "lon": 127.5877835, "name": "육이오참전기념비", "type": "archaeological_site", "address": ""}]