[{"id": "368636092", "lat": 37.3259342, "lon": 126.8273841, "name": "안산올림픽기념관", "type": "museum", "address": ""}, {"id": "368898545", "lat": 37.318889, "lon": 126.828071, "name": "단원전시관", "type": "museum", "address": ""}, {"id": "687161602", "lat": 37.2737699, "lon": 126.8397473, "name": "안산 습지 공원 기념관", "type": "museum", "address": ""}, {"id": "4631339758", "lat": 37.3232962, "lon": 126.8127171, "name": "호국국가 유공자공적비", "type": "monument", "address": ""}, {"id": "4636729494", "lat": 37.3351758, "lon": 126.7842857, "name": "시계탑", "type": "monument", "address": ""}, {"id": "4636734078", "lat": 37.3357547, "lon": 126.7851707, "name": "고인돌 움막", "type": "monument", "address": ""}, {"id": "4682669559", "lat": 37.3330723, "lon": 126.837091, "name": "존배 상", "type": "monument", "address": ""}, {"id": "4682674569", "lat": 37.333277, "lon": 126.8364572, "name": "동랑 유치진 선생 동상", "type": "monument", "address": ""}, {"id": "8348409417", "lat": 37.3113164, "lon": 126.8316887, "name": "시계탑", "type": "monument", "address": ""}, {"id": "12384686860", "lat": 37.2993337, "lon": 126.7978349, "name": "별망성", "type": "archaeological_site", "address": ""}]