[{"id": "368898269", "lat": 37.301932, "lon": 127.649791, "name": "명성도예전시관", "type": "museum", "address": ""}, {"id": "4655285939", "lat": 37.2940779, "lon": 127.6489473, "name": "현충탑", "type": "memorial", "address": ""}, {"id": "4655285940", "lat": 37.2949334, "lon": 127.6476329, "name": "김명진 애민선정비", "type": "memorial", "address": ""}, {"id": "11381036398", "lat": 37.2777291, "lon": 127.6478289, "name": "여주산림박물관", "type": "museum", "address": ""}, {"id": "12701625395", "lat": 37.2946653, "lon": 127.6483789, "name": "여주군6.25참전기념비", "type": "memorial", "address": ""}, {"id": "12701625461", "lat": 37.2952259, "lon": 127.6480906, "name": "그리스군참전비", "type": "memorial", "address": ""}]