[{"id": "368734111", "lat": 37.3368363, "lon": 128.0107347, "name": "치악민속박물관", "type": "museum", "address": ""}, {"id": "4658617067", "lat": 37.3476781, "lon": 127.9502334, "name": "원주감영사료관", "type": "museum", "address": ""}, {"id": "4956630720", "lat": 37.3455566, "lon": 127.9502914, "name": "원주문화원", "type": "museum", "address": ""}, {"id": "6382936459", "lat": 37.3489386, "lon": 127.9515098, "name": "조선식산은행 원주지점", "type": "attraction", "address": ""}, {"id": "6547795222", "lat": 37.3247807, "lon": 127.9824537, "name": "반곡역사관", "type": "museum", "address": ""}, {"id": "6591035010", "lat": 37.323383, "lon": 127.9541041, "name": "임윤지당 선양관", "type": "memorial", "address": ""}, {"id": "6591035120", "lat": 37.3227588, "lon": 127.959666, "name": "박경리문학의집", "type": "memorial", "address": ""}, {"id": "7165536172", "lat": 37.3252511, "lon": 127.9898861, "name": "지방자치  선도로 국가 발전에 공헌", "type": "memorial", "address": ""}, {"id": "12107624902", "lat": 37.3428071, "lon": 127.967191, "name": "원주역사박물관", "type": "museum", "address": ""}, {"id": "12442832418", "lat": 37.3487507, "lon": 127.9534344, "name": "아카데미 극장", "type": "yes", "address": ""}, {"id": "12442832419", "lat": 37.3486359, "lon": 127.9526803, "name": "시공관", "type": "yes", "address": ""}]