[{"id": "368734660", "lat": 37.3516651, "lon": 127.3269685, "name": "조선관요박물관", "type": "museum", "address": ""}, {"id": "5515883431", "lat": 37.3900207, "lon": 127.2951176, "name": "신일드림빌 표석", "type": "monument", "address": ""}, {"id": "7036478438", "lat": 37.4107801, "lon": 127.2541582, "name": "현충탑", "type": "monument", "address": ""}, {"id": "7036478472", "lat": 37.408207, "lon": 127.252547, "name": "공적비", "type": "monument", "address": ""}, {"id": "7426152818", "lat": 37.3687478, "lon": 127.3015402, "name": "시계탑", "type": "monument", "address": ""}, {"id": "7459258429", "lat": 37.3510567, "lon": 127.3266425, "name": "경기도자박물관", "type": "museum", "address": ""}, {"id": "8358707743", "lat": 37.3643994, "lon": 127.3111195, "name": "산이리 지석묘(고인돌)", "type": "archaeological_site", "address": ""}, {"id": "10721972855", "lat": 37.4324359, "lon": 127.3069599, "name": "신익희 생가", "type": "archaeological_site", "address": ""}]