[{"id": "368635852", "lat": 37.5239178, "lon": 127.0355311, "name": "도산 안창호 기념관", "type": "museum", "address": ""}, {"id": "368734562", "lat": 37.485655, "lon": 127.027952, "name": "전기박물관", "type": "museum", "address": ""}, {"id": "368734686", "lat": 37.5240432, "lon": 127.0328281, "name": "코리아나 화장박물관", "type": "museum", "address": ""}, {"id": "368734773", "lat": 37.495598, "lon": 126.9569614, "name": "숭실대학교 한국기독교박물관", "type": "museum", "address": ""}, {"id": "368735153", "lat": 37.5184862, "lon": 127.0345671, "name": "관세박물관", "type": "museum", "address": ""}, {"id": "368735237", "lat": 37.497279, "lon": 127.043365, "name": "민폐류박물관", "type": "museum", "address": ""}, {"id": "368735437", "lat": 37.515418, "lon": 127.033223, "name": "한국자수박물관", "type": "museum", "address": ""}, {"id": "368735943", "lat": 37.466735, "lon": 127.020758, "name": "한국분재박물관", "type": "museum", "address": ""}, {"id": "368898553", "lat": 37.54282, "lon": 126.990963, "name": "만물전시관", "type": "museum", "address": ""}, {"id": "368898653", "lat": 37.4687998, "lon": 126.95952, "name": "서울특별시교육청과학전시관", "type": "museum", "address": ""}, {"id": "2385295676", "lat": 37.5351499, "lon": 126.9780974, "name": "광개토대왕릉비 (Monument of King Gwanggaeto the Great)", "type": "memorial", "address": ""}, {"id": "2477254537", "lat": 37.5074573, "lon": 127.0466398, "name": "선릉 홍살문", "type": "yes", "address": ""}, {"id": "2669761339", "lat": 37.5238304, "lon": 126.9783367, "name": "국립중앙박물관 어린이박물관", "type": "museum", "address": "서빙고로"}, {"id": "3157323164", "lat": 37.5458999, "lon": 126.9599865, "name": "효창공원 반공투사위령탑", "type": "monument", "address": ""}, {"id": "3790603172", "lat": 37.4691715, "lon": 127.035765, "name": "매헌 윤봉길 동상", "type": "memorial", "address": ""}, {"id": "3818772627", "lat": 37.5350816, "lon": 126.9780428, "name": "The Monument of King Gwanggaeto the Great", "type": "memorial", "address": ""}, {"id": "3865665642", "lat": 37.5371364, "lon": 126.9771463, "name": "진고", "type": "artwork", "address": ""}, {"id": "4392431393", "lat": 37.5381679, "lon": 126.9986538, "name": "리움", "type": "museum", "address": ""}, {"id": "4637371771", "lat": 37.4760263, "lon": 126.979457, "name": "서울시립미술관 남서울분관", "type": "museum", "address": ""}, {"id": "4658450397", "lat": 37.4685658, "lon": 127.0376199, "name": "기념비", "type": "monument", "address": ""}, {"id": "4695698700", "lat": 37.5105387, "lon": 126.9629099, "name": "효사정", "type": "yes", "address": ""}, {"id": "5367408623", "lat": 37.5006388, "lon": 126.9739629, "name": "학도의용군무명용사탑", "type": "memorial", "address": ""}, {"id": "5367408624", "lat": 37.5020001, "lon": 126.9683211, "name": "경찰충혼탑", "type": "memorial", "address": ""}, {"id": "5367408625", "lat": 37.5004732, "lon": 126.967844, "name": "대한독립군 무명용사위령탑", "type": "memorial", "address": ""}, {"id": "5367408626", "lat": 37.5014605, "lon": 126.9729795, "name": "육탄10용사현충비", "type": "memorial", "address": ""}, {"id": "5367408627", "lat": 37.5006159, "lon": 126.9696986, "name": "충열대", "type": "memorial", "address": ""}, {"id": "5761152203", "lat": 37.5245209, "lon": 127.0353635, "name": "안창호 상", "type": "memorial", "address": ""}, {"id": "5761152204", "lat": 37.5248269, "lon": 127.0346839, "name": "기념비", "type": "memorial", "address": ""}, {"id": "5819516270", "lat": 37.4526738, "lon": 127.0287408, "name": "추사박물관", "type": "museum", "address": "추사로"}, {"id": "5977243896", "lat": 37.5317146, "lon": 127.0288238, "name": "압구정 옛 터", "type": "memorial", "address": ""}, {"id": "6086642532", "lat": 37.46206, "lon": 126.9686917, "name": "봉천동 마애미륵불좌상", "type": "archaeological_site", "address": ""}, {"id": "6875629986", "lat": 37.5448659, "lon": 127.0457148, "name": "코사이어티", "type": "museum", "address": ""}, {"id": "7169517000", "lat": 37.524429, "lon": 127.0159615, "name": "한국음반산업협회 한남대교 K-POP 체험관", "type": "museum", "address": ""}, {"id": "7552260757", "lat": 37.5007727, "lon": 126.9766996, "name": "포병위령추모비", "type": "memorial", "address": ""}, {"id": "7552260758", "lat": 37.4986652, "lon": 126.9776441, "name": "유격부대전적위령비", "type": "memorial", "address": ""}, {"id": "7552285801", "lat": 37.500304, "lon": 126.9733473, "name": "육사7기특별동기생추모탑", "type": "memorial", "address": ""}, {"id": "7552285802", "lat": 37.5004346, "lon": 126.9725089, "name": "재일학도의용군전몰용사위령비", "type": "memorial", "address": ""}, {"id": "7553160330", "lat": 37.5006212, "lon": 126.9695134, "name": "무후선열제단", "type": "memorial", "address": ""}, {"id": "7553160431", "lat": 37.5001388, "lon": 126.9739706, "name": "50년현지임관 전사자추념비", "type": "memorial", "address": ""}, {"id": "7660036145", "lat": 37.4989026, "lon": 126.968174, "name": "조국의품에", "type": "memorial", "address": ""}, {"id": "7745585707", "lat": 37.5209895, "lon": 126.9908735, "name": "'빙고호텔'터", "type": "memorial", "address": ""}, {"id": "7902051353", "lat": 37.541076, "lon": 126.9717819, "name": "민주인권기념관", "type": "monument", "address": ""}, {"id": "11736285335", "lat": 37.5355511, "lon": 126.9667658, "name": "당고개순교성지", "type": "yes", "address": ""}, {"id": "11745195717", "lat": 37.5205167, "lon": 126.9909069, "name": "서빙고터", "type": "memorial", "address": ""}, {"id": "12444278344", "lat": 37.5207111, "lon": 126.991652, "name": "보안사 서빙고 분실 터", "type": "memorial", "address": ""}, {"id": "12720727706", "lat": 37.4543895, "lon": 127.0017938, "name": "K&L뮤지엄", "type": "museum", "address": ""}]