[{"id": "10203508653", "lat": 37.547571, "lon": 127.582947, "name": "용문산지구 전적비", "type": "monument", "address": ""}, {"id": "10560471528", "lat": 37.4789879, "lon": 127.6374379, "name": "지평지구전투전적", "type": "memorial", "address": ""}, {"id": "10560471529", "lat": 37.4791035, "lon": 127.637196, "name": "지평리선정비", "type": "memorial", "address": ""}, {"id": "10560471530", "lat": 37.478676, "lon": 127.6373087, "name": "지평리 전쟁기념관", "type": "museum", "address": ""}, {"id": "11116118835", "lat": 37.547595, "lon": 127.5812371, "name": "양평 친환경농업박물관", "type": "museum", "address": "신점리 508-9"}]