[{"id": "368635843", "lat": 37.4755447, "lon": 126.7816906, "name": "펄벅기념관", "type": "museum", "address": ""}, {"id": "368733950", "lat": 37.5026714, "lon": 126.7975489, "name": "한국만화박물관.부천수석박물관", "type": "museum", "address": ""}, {"id": "368734194", "lat": 37.5008197, "lon": 126.7974137, "name": "활박물관", "type": "museum", "address": ""}, {"id": "368734236", "lat": 37.503263, "lon": 126.7977153, "name": "유럽자기박물관", "type": "museum", "address": ""}, {"id": "368734296", "lat": 37.4921151, "lon": 126.8449499, "name": "평강성서유물박물관", "type": "museum", "address": ""}, {"id": "368734451", "lat": 37.5022266, "lon": 126.7975736, "name": "부천교육박물관", "type": "museum", "address": ""}, {"id": "368735811", "lat": 37.5048266, "lon": 126.8165464, "name": "자연생태박물관", "type": "museum", "address": ""}, {"id": "368868795", "lat": 37.5051268, "lon": 126.8157133, "name": "부천식물원", "type": "museum", "address": ""}, {"id": "368871432", "lat": 37.515833, "lon": 126.789502, "name": "부천향토역사관", "type": "museum", "address": ""}, {"id": "4641748096", "lat": 37.5226319, "lon": 126.8474409, "name": "장수마을비", "type": "monument", "address": ""}, {"id": "4688602520", "lat": 37.492188, "lon": 126.8435141, "name": "아트빌라", "type": "monument", "address": "오류로8길"}, {"id": "5593697721", "lat": 37.5069942, "lon": 126.8182919, "name": "물박물관", "type": "museum", "address": ""}, {"id": "8323408039", "lat": 37.5240936, "lon": 126.8475772, "name": "세종대왕상", "type": "memorial", "address": ""}, {"id": "11892747965", "lat": 37.4657574, "lon": 126.8455963, "name": "KCYCLE 조형물", "type": "monument", "address": ""}, {"id": "11892747966", "lat": 37.4685096, "lon": 126.8469325, "name": "스피돔 조형물", "type": "monument", "address": ""}]