[{"id": "368734122", "lat": 37.519115, "lon": 126.901395, "name": "만천곤충박물관", "type": "museum", "address": ""}, {"id": "368734389", "lat": 37.523919, "lon": 126.871874, "name": "생명과학체험박물관", "type": "museum", "address": ""}, {"id": "368735446", "lat": 37.523901, "lon": 126.871863, "name": "생명과학박물관", "type": "museum", "address": ""}, {"id": "368898142", "lat": 37.487808, "lon": 126.914893, "name": "비단금 서울전시관", "type": "museum", "address": ""}, {"id": "2676472612", "lat": 37.5279863, "lon": 126.9288729, "name": "LG사이언스홀", "type": "monument", "address": ""}, {"id": "4634864410", "lat": 37.4674666, "lon": 126.9447948, "name": "남파김삼준 문화복지기념관", "type": "memorial", "address": ""}, {"id": "4637973533", "lat": 37.4500231, "lon": 126.9146219, "name": "바르게 살자 표지석", "type": "monument", "address": ""}, {"id": "4639178943", "lat": 37.5314433, "lon": 126.9012331, "name": "효성아파트 Rose door", "type": "monument", "address": ""}, {"id": "4992792616", "lat": 37.4583357, "lon": 126.9092772, "name": "순흥안씨양도공파묘군", "type": "archaeological_site", "address": ""}, {"id": "5160158546", "lat": 37.5248541, "lon": 126.9236374, "name": "SeMA벙커", "type": "museum", "address": ""}, {"id": "5597436254", "lat": 37.4657249, "lon": 126.9261104, "name": "100주년 기념비", "type": "monument", "address": ""}, {"id": "9869342410", "lat": 37.5014586, "lon": 126.9230377, "name": "여명탑", "type": "memorial", "address": ""}, {"id": "11014563967", "lat": 37.5173953, "lon": 126.9030365, "name": "독도체험관", "type": "museum", "address": ""}]