[{"id": "368734840", "lat": 37.5447524, "lon": 127.2066333, "name": "하남역사박물관", "type": "museum", "address": ""}, {"id": "446004405", "lat": 37.4796437, "lon": 127.1984781, "name": "동장대터", "type": "archaeological_site", "address": ""}, {"id": "446004769", "lat": 37.4718123, "lon": 127.1851225, "name": "남장대터", "type": "archaeological_site", "address": ""}, {"id": "446005015", "lat": 37.4740267, "lon": 127.1958267, "name": "송암정 터", "type": "archaeological_site", "address": ""}, {"id": "4720489371", "lat": 37.4511854, "lon": 127.1693827, "name": "자혜공원 비석", "type": "memorial", "address": ""}, {"id": "5328750172", "lat": 37.5385895, "lon": 127.2135394, "name": "삼일절 독립운동 기념물", "type": "memorial", "address": ""}, {"id": "5521903312", "lat": 37.5385201, "lon": 127.2135576, "name": "이교범시장취임 기념식수", "type": "memorial", "address": ""}, {"id": "5521903313", "lat": 37.5386867, "lon": 127.2133453, "name": "오수봉시장취임 기념식수", "type": "memorial", "address": ""}, {"id": "5630050628", "lat": 37.5367981, "lon": 127.2291801, "name": "베트남참전기념탑", "type": "memorial", "address": ""}, {"id": "6016767691", "lat": 37.5387144, "lon": 127.22812, "name": "Sangokcheon Cherry Blossom Lane", "type": "yes", "address": ""}, {"id": "6016767692", "lat": 37.5386317, "lon": 127.2282319, "name": "Sangokcheon Cherry Blossom Lane", "type": "yes", "address": ""}, {"id": "6016767694", "lat": 37.5389096, "lon": 127.2288349, "name": "Sangokcheon", "type": "yes", "address": ""}, {"id": "6016767695", "lat": 37.5386395, "lon": 127.228615, "name": "Sangokcheon", "type": "yes", "address": ""}, {"id": "7581647435", "lat": 37.5343018, "lon": 127.1985484, "name": "하남시 6.25전쟁 참전 기념비", "type": "memorial", "address": ""}, {"id": "8116767077", "lat": 37.4651973, "lon": 127.1641812, "name": "호국무공수훈자공적비", "type": "memorial", "address": ""}, {"id": "8735623231", "lat": 37.478154, "lon": 127.1835449, "name": "천흥사 동종", "type": "archaeological_site", "address": ""}, {"id": "8735623232", "lat": 37.4785978, "lon": 127.1835166, "name": "침괘정", "type": "archaeological_site", "address": ""}, {"id": "8735623235", "lat": 37.4784565, "lon": 127.1864335, "name": "연무관", "type": "archaeological_site", "address": ""}, {"id": "9711352589", "lat": 37.5463784, "lon": 127.2444694, "name": "남양주시립박물관", "type": "museum", "address": ""}, {"id": "11496028106", "lat": 37.5454338, "lon": 127.2061436, "name": "하남역사박물관", "type": "museum", "address": ""}, {"id": "11716551521", "lat": 37.5300564, "lon": 127.2361185, "name": "현충탑", "type": "memorial", "address": ""}, {"id": "11924847727", "lat": 37.4812177, "lon": 127.2029297, "name": "남한산정상석", "type": "memorial", "address": ""}, {"id": "11993287148", "lat": 37.4579035, "lon": 127.1897802, "name": "검단산정상석", "type": "memorial", "address": ""}, {"id": "11993287230", "lat": 37.4693165, "lon": 127.1696535, "name": "불망비", "type": "memorial", "address": ""}]