[{"id": "368635618", "lat": 37.5684953, "lon": 126.896336, "name": "풋볼 팬타지움", "type": "museum", "address": ""}, {"id": "368734664", "lat": 37.5605952, "lon": 126.9482409, "name": "이화여자대학교 자연사박물관", "type": "museum", "address": ""}, {"id": "368734933", "lat": 37.5509148, "lon": 126.9260136, "name": "홍익대학교박물관", "type": "museum", "address": ""}, {"id": "368735777", "lat": 37.576676, "lon": 126.9377239, "name": "서대문 자연사박물관", "type": "museum", "address": ""}, {"id": "368735921", "lat": 37.5603533, "lon": 126.9448531, "name": "이화여자대학교 100주년기념박물관", "type": "museum", "address": ""}, {"id": "368735959", "lat": 37.554086, "lon": 126.925728, "name": "작은박물관", "type": "museum", "address": ""}, {"id": "414685345", "lat": 37.5595114, "lon": 126.9428663, "name": "신촌역", "type": "memorial", "address": ""}, {"id": "1779015909", "lat": 37.639033, "lon": 126.9452987, "name": "일주문", "type": "monument", "address": ""}, {"id": "2457192141", "lat": 37.618831, "lon": 126.9325563, "name": "Multi-Museum", "type": "museum", "address": ""}, {"id": "3046771133", "lat": 37.5803695, "lon": 126.8900089, "name": "한국영화박물관", "type": "museum", "address": ""}, {"id": "3355165293", "lat": 37.5635612, "lon": 126.8983872, "name": "난지도 이야기 (Story of Nanjido)", "type": "museum", "address": ""}, {"id": "3431100454", "lat": 37.5999091, "lon": 126.865595, "name": "항공우주박물관", "type": "museum", "address": ""}, {"id": "4295291340", "lat": 37.5703608, "lon": 126.9336209, "name": "안싱", "type": "museum", "address": ""}, {"id": "4493807296", "lat": 37.5623978, "lon": 126.9470158, "name": "Statue of Dr. Helen Kim", "type": "memorial", "address": ""}, {"id": "6505641285", "lat": 37.576841, "lon": 126.9472495, "name": "봉수대", "type": "archaeological_site", "address": ""}, {"id": "10951405259", "lat": 37.5627154, "lon": 126.9380483, "name": "한열동산", "type": "memorial", "address": ""}, {"id": "11662204261", "lat": 37.5521844, "lon": 126.9401413, "name": "I관 예수상", "type": "memorial", "address": ""}, {"id": "11902890688", "lat": 37.5570205, "lon": 126.936774, "name": "빨잠 (빨간 잠망경)", "type": "memorial", "address": ""}, {"id": "12265005601", "lat": 37.5538039, "lon": 126.9218976, "name": "Trick Eye Museum", "type": "museum", "address": ""}, {"id": "12557349870", "lat": 37.5604647, "lon": 126.9382408, "name": "세브란스병원", "type": "memorial", "address": ""}, {"id": "12558747826", "lat": 37.5603591, "lon": 126.9365641, "name": "연세대학교 정문 기념물", "type": "memorial", "address": ""}]