[{"id": "368871407", "lat": 37.738621, "lon": 126.512708, "name": "역사관", "type": "museum", "address": ""}, {"id": "9732115616", "lat": 37.7469597, "lon": 126.5243629, "name": "제승돈대", "type": "archaeological_site", "address": ""}, {"id": "10589070585", "lat": 37.6520467, "lon": 126.5346957, "name": "덕포진", "type": "archaeological_site", "address": ""}, {"id": "10777027410", "lat": 37.6517315, "lon": 126.5350882, "name": "가포대", "type": "archaeological_site", "address": ""}, {"id": "10777027411", "lat": 37.6526519, "lon": 126.534209, "name": "나포대", "type": "archaeological_site", "address": ""}, {"id": "10777027412", "lat": 37.6533749, "lon": 126.5332782, "name": "다포대", "type": "archaeological_site", "address": ""}, {"id": "10777027413", "lat": 37.6543837, "lon": 126.5330644, "name": "파수청터", "type": "archaeological_site", "address": ""}]