[{"id": "368733875", "lat": 37.654535, "lon": 127.014639, "name": "옹기민속박물관", "type": "museum", "address": ""}, {"id": "368735018", "lat": 37.650993, "lon": 127.016839, "name": "덕성여자대학교 박물관", "type": "museum", "address": ""}, {"id": "368735908", "lat": 37.653691, "lon": 127.008564, "name": "박을복자수박물관", "type": "museum", "address": ""}, {"id": "368898704", "lat": 37.71734, "lon": 127.048453, "name": "의정부주공주택전시관", "type": "museum", "address": ""}, {"id": "1655543083", "lat": 37.6552678, "lon": 126.954383, "name": "수문터", "type": "monument", "address": ""}, {"id": "4637478432", "lat": 37.6529303, "lon": 127.034825, "name": "함석헌기념관", "type": "memorial", "address": "도봉로123길"}, {"id": "4642426680", "lat": 37.6524379, "lon": 127.0276565, "name": "둘리뮤지엄", "type": "museum", "address": "시루봉로1길"}, {"id": "4642472929", "lat": 37.660308, "lon": 127.0238985, "name": "김수영문학관", "type": "memorial", "address": ""}, {"id": "5750034469", "lat": 37.6577716, "lon": 126.956928, "name": "서암문 (Seoammun)", "type": "monument", "address": ""}, {"id": "7194717496", "lat": 37.7390538, "lon": 127.0469679, "name": "의정부 3 1운동기념비", "type": "monument", "address": ""}, {"id": "8095056142", "lat": 37.6877986, "lon": 127.0295272, "name": "김수영 시비", "type": "memorial", "address": ""}, {"id": "9698052917", "lat": 37.7335243, "lon": 126.9503767, "name": "권율장군묘", "type": "memorial", "address": ""}, {"id": "11664427585", "lat": 37.6876164, "lon": 127.0348742, "name": "산악박물관", "type": "museum", "address": ""}]