[{"id": "368734462", "lat": 37.777198, "lon": 128.932292, "name": "참소리축음기에디슨박물관", "type": "museum", "address": ""}, {"id": "368898304", "lat": 37.768351, "lon": 128.907831, "name": "창호종합전시관", "type": "museum", "address": ""}, {"id": "368898533", "lat": 37.764926, "lon": 128.889094, "name": "창호종합전시관", "type": "museum", "address": ""}, {"id": "913347482", "lat": 37.7949634, "lon": 128.8967348, "name": "Gyeongpadae", "type": "monument", "address": ""}, {"id": "4676092717", "lat": 37.7840281, "lon": 128.9171936, "name": "현대아파트 건축비", "type": "monument", "address": ""}, {"id": "5415614228", "lat": 37.7664827, "lon": 128.8972315, "name": "Olympic Memorial", "type": "memorial", "address": ""}, {"id": "5420372164", "lat": 37.7981292, "lon": 128.8980375, "name": "참소리축음기에디슨박물관 (Chamsorichukeumgiediseun Museum)", "type": "museum", "address": ""}, {"id": "6437605885", "lat": 37.7638612, "lon": 128.8995797, "name": "수호랑 과 반다비", "type": "monument", "address": ""}, {"id": "8341766456", "lat": 37.7793731, "lon": 128.8776056, "name": "오죽헌 사랑채", "type": "archaeological_site", "address": ""}, {"id": "10656702315", "lat": 37.7983598, "lon": 128.8582494, "name": "KIST 강릉분원 과학체험관", "type": "museum", "address": ""}, {"id": "12133411208", "lat": 37.7742828, "lon": 128.9430516, "name": "환희컵박물관", "type": "museum", "address": ""}]